Region,Country,NOWID,Locality.name,N,Brachydonts,Hypsodonts,Latitude,Longitude,Max.age,Min.age,Age,European.Mammal.Zone
Europe,Austria,21119,Oberdorf 3 (O3),38,4,0,47.07527778,15.15138889,17.2,16.4,16.8,MN4
Europe,Austria,20235,Eibiswald,7,3,1,46.687,15.247,16.4,14.2,15.3,MN5
Europe,Austria,20011,Goriach,31,11,1,47.55,15.3,16.4,14.2,15.3,MN5
Europe,Austria,22491,Grund,15,6,0,48.63805556,16.06416667,15.3,14.2,14.75,MN5
Europe,Austria,27884,St. Stefan im Lavanttal,21,3,0,47.1375,15.34861111,12.174,12.049,12.1115,MN7-8
Europe,Austria,20277,Klein Hadersdorf,7,5,1,48.6,16.6,12.85,11.2,12.025,MN7-8
Europe,Austria,21358,Mannersdorf,8,5,2,48,16.5,12.85,11.2,12.025,MN7-8
Europe,Austria,27087,Atzelsdorf,36,8,4,48.51027778,16.54416667,11.2,9.9,10.55,MN9
Europe,Austria,20454,Gaiselberg,8,3,2,48.533,16.717,11.2,9.9,10.55,MN9
Europe,Austria,20178,Mistelbach,3,2,1,48.6,16.5,11.2,9.9,10.55,MN9
Europe,Austria,20187,Oberhollabrunn,3,3,0,48.55,16.067,11.2,9.9,10.55,MN9
Europe,Austria,20437,Vösendorf,15,4,3,48.1,16.31666667,11.2,9.9,10.55,MN9
Europe,Austria,20259,Wien-Belvedere,3,3,0,48.2,16.4,11.2,8.9,10.05,MN9
Europe,Austria,20445,Stratzing,4,1,2,48.45,15.6,9.9,8.9,9.4,MN10
Europe,Austria,26402,Krems-Wachtberg,9,0,5,48.41305556,15.59361111,0.0277,0.0271,0.0274,MN18
Europe,Belgium,27648,Hoogbutsel,26,4,0,50.848,4.836,33.77,32.63,33.2,MP21
Europe,Belgium,26616,Zemst IIB,17,1,7,50.987,4.3911,0.126,0.126,0.126,MN18
Europe,Belgium,26617,Zemst IIIC,10,0,7,50.987,4.3911,0.115,0.0625,0.08875,MN18
Europe,Belgium,26998,Goyet Cave st. 4,17,0,10,50.433,5.0167,0.115,0.03625,0.075625,MN18
Europe,Belgium,26618,Hofstade I,9,0,6,50.97,4.4,0.08875,0.045,0.066875,MN18
Europe,Belgium,26619,Hofstade II,6,0,5,50.97,4.4,0.08,0.045,0.0625,MN18
Europe,Belgium,26620,Hofstade III,7,0,6,50.97,4.4,0.08,0.045,0.0625,MN18
Europe,Bulgaria,23022,Kalimanci 1,13,5,7,41.46548,23.474762,8.9,7.6,8.25,MN11
Europe,Bulgaria,24895,Kocherinovo 1,7,2,3,42,23.0833,8.9,7.6,8.25,MN11
Europe,Bulgaria,24896,Kocherinovo 2,8,3,5,42.0333,23.0833,8.9,7.6,8.25,MN11
Europe,Bulgaria,24898,Strumyani 2,14,5,6,42.8333,23.1,8.9,7.6,8.25,MN11
Europe,Bulgaria,20293,Gorna Susica,7,2,4,41.833,23.083,8.3,7.285,7.7925,MN11
Europe,Bulgaria,22557,Hadjidimovo-1,33,9,13,41.5,23.833,7.6,7.1,7.35,MN12
Europe,Bulgaria,20291,Kalimanci 2,16,3,6,41.46548,23.474762,7.6,7.1,7.35,MN12
Europe,Bulgaria,23023,Kalimanci 3,6,2,4,41.46548,23.474762,7.6,7.1,7.35,MN12
Europe,Bulgaria,23024,Kalimanci 4,8,1,5,41.46548,23.474762,7.6,7.1,7.35,MN12
Europe,Bulgaria,24342,Kalimantsi-Pehtsata,7,2,2,42.5,23.1,7.6,7.1,7.35,MN12
Europe,Bulgaria,23025,Kromidovo 1,5,1,3,41.45,23.367,7.6,7.1,7.35,MN12
Europe,Bulgaria,20292,Kromidovo 2,5,1,2,41.45,23.367,7.6,7.1,7.35,MN12
Europe,Bulgaria,24897,Strumyani 1,10,3,7,42.8333,23.0833,7.6,7.1,7.35,MN12
Europe,Bulgaria,28320,Azmaka 1-4,27,9,13,42.22343275,25.31181335,7.285,7.251,7.268,MN12
Europe,Bulgaria,24025,Dorkovo,24,4,3,42.05,24.12222222,5.3,5,5.15,MN14
Europe,Bulgaria,22004,Slivnitsa,19,2,8,42.85,23.033,3.55,1.187,2.3685,MN17
Europe,Bulgaria,22003,Varshets,24,6,3,43.195,23.286,2.5,1.9,2.2,MN17
Europe,Czech Republic,21487,Skyřice,5,2,0,50.483,13.65,19.5,17.2,18.35,MN3
Europe,Czech Republic,28950,Mokra,8,3,0,49.23184666,16.75126224,17.2,16.4,16.8,MN4
Europe,Czech Republic,21051,Prezletice,36,2,5,50.15,14.58333333,0.79,0.761,0.7755,MN18
Europe,Czech Republic,28269,Praha Upper Pleistocene,19,0,6,50.0878114,14.4204598,0.115,0.01,0.0625,MN18
Europe,Czech Republic,26720,Zitny cave,6,0,5,49.267,16.6667,0.03625,0.01,0.023125,MN18
Europe,France,22833,Saint-Capraise-D'Eymet,11,9,0,44.7,0.5,33.9,33.77,33.835,MP20
Europe,France,22841,Ronzon,28,7,0,45.043817,3.8783578,33.77,32.63,33.2,MP21
Europe,France,22834,Soumailles,9,3,0,45.2,2.017,33.77,32.63,33.2,MP21
Europe,France,22834,Soumailles,9,3,0,45.2,2.017,33.77,32.63,33.2,MP21
Europe,France,22844,Bournoncle-Saint-Pierre,6,4,0,45.333,3.317,33.77,30.83,32.3,MP22
Europe,France,22835,Villebramar,21,9,0,44.517,0.483,32.63,30.83,31.73,MP22
Europe,France,22836,Hommes MN5,37,8,0,44.25,1.25,30.83,29.97,30.4,MP23
Europe,France,22848,La Benissons-Dieu,6,5,0,46.15,4.05,30.83,27.24,29.035,MP24
Europe,France,22852,Antoingt,13,3,0,45.5,3.183,28.82,27.24,28.03,MP25
Europe,France,22759,Mas de Pauffie,30,3,0,44.22,-0.55,27.24,25.41,26.325,MP26
Europe,France,22853,Saint-Menoux,37,5,0,46.583,3.15,27.24,25.41,26.325,MP26
Europe,France,22855,Cournon,31,7,0,47.75,-2.1,24.56,23.26,23.91,MP28
Europe,France,27881,Dieupentale,32,6,0,43.8619272,1.2696956,23.86,23.26,23.56,MP29
Europe,France,22856,Les Chaufours,18,3,0,48.4,1.35,23.86,23.26,23.56,MP29
Europe,France,22857,Verneuil,20,3,0,45.783,0.7,23.86,23.26,23.56,MP29
Europe,France,22858,Mine-des-Roys,17,2,0,45.767,3.233,23.86,23,23.43,MP29
Europe,France,22859,Gannat-sommet,17,5,0,46.1,3.2,23.26,23,23.13,MP30
Europe,France,21007,Fornant 11,22,3,0,45.967,5.85,23,21.7,22.35,MN1
Europe,France,21286,Chavaignes MN5,31,3,0,46.35,3.6,21.7,19.5,20.6,MN2
Europe,France,27487,Lambert,15,3,0,44.2152625,6.2214379,21.7,19.5,20.6,MN2
Europe,France,21217,Saint-Gérand-le-Puy,22,6,0,46.25,3.517,21.7,19.5,20.6,MN2
Europe,France,21362,Selles-sur-Cher,16,4,0,47.267,1.55,21.7,19.5,20.6,MN2
Europe,France,21880,Mauvières,16,7,0,46.567,1.083,20.01,18.41,19.21,MN3
Europe,France,21595,Esvres - Continental Sands,37,10,0,47.3,0.8,19.5,18.35,18.925,MN3
Europe,France,23057,Auverse MN3,21,5,0,47.517,0.05,19.5,17.2,18.35,MN3
Europe,France,26693,Beaulieu,23,5,0,43.76666667,4.2833,19.5,17.2,18.35,MN3
Europe,France,27420,Channay-sur-Lathan MN3,8,5,0,47.4796598,0.2630479,19.5,17.2,18.35,MN3
Europe,France,27404,Chavaignes MN3,8,5,0,47.5410295,0.0369747,19.5,17.2,18.35,MN3
Europe,France,21231,Chilleurs-aux-Bois,14,7,0,48.05,2.08,19.5,17.2,18.35,MN3
Europe,France,21227,Chitenay,17,11,0,47.5,1.367,19.5,17.2,18.35,MN3
Europe,France,21311,Dénezé-sous-le-Lude MN3,15,6,0,47.533,0.133,19.5,17.2,18.35,MN3
Europe,France,21408,Estrepouy,25,7,0,44.083,0.417,19.5,17.2,18.35,MN3
Europe,France,27399,Genneteil MN3,8,5,0,47.5922046,0.0494674,19.5,17.2,18.35,MN3
Europe,France,27428,Hommes MN3,16,9,0,47.4252487,0.2965094,19.5,17.2,18.35,MN3
Europe,France,21484,La Brosse,17,9,0,47.45,-0.7,19.5,17.2,18.35,MN3
Europe,France,27401,Lasse MN3,18,7,0,47.5364804,0.010832,19.5,17.2,18.35,MN3
Europe,France,21483,Les Beilleaux,30,8,0,47.45,0.317,19.5,17.2,18.35,MN3
Europe,France,21737,Marsolan,13,4,0,43.95,0.55,19.5,17.2,18.35,MN3
Europe,France,23069,Meigne-le-Vicomte MN3,11,5,0,47.5097694,0.1908007,19.5,17.2,18.35,MN3
Europe,France,21221,Neuville-aux-Bois,11,6,1,48.067,2.05,19.5,17.2,18.35,MN3
Europe,France,21310,Noyant-sous-le-Lude MN3,32,8,0,47.517,0.117,19.5,17.2,18.35,MN3
Europe,France,21486,Pessac - Cap-de-Bos inf.,25,7,0,44.8,-0.617,19.5,17.2,18.35,MN3
Europe,France,21382,Pont-Boutard MN3,23,9,0,47.317,0.35,19.5,17.2,18.35,MN3
Europe,France,21228,Pontigne MN3,32,12,0,47.5475877,-0.0410218,19.5,17.2,18.35,MN3
Europe,France,27425,Rillé MN3,10,7,0,47.4495752,0.2478435,19.5,17.2,18.35,MN3
Europe,France,27426,Savigné-sur-Lathan MN3,27,7,0,47.45,0.317,19.5,17.2,18.35,MN3
Europe,France,27320,Chavroches,21,3,0,43.9339997,0.6198052,17.2,16.4,16.8,MN4
Europe,France,21473,Chevilly,11,3,1,48.033,1.883,17.2,16.4,16.8,MN4
Europe,France,27319,La Romieu superior,23,6,0,44.2,0.9,17.2,16.4,16.8,MN4
Europe,France,21225,Montreal-du-Gers,31,7,4,43.95,0.2,17.2,16.4,16.8,MN4
Europe,France,27167,Sérido,25,3,0,43.94888889,0.650833333,17.2,16.4,16.8,MN4
Europe,France,27279,Auverse MN5,27,10,1,47.51801223,0.052013397,16.4,14.2,15.3,MN5
Europe,France,20005,Baigneaux-en-Beauce,33,12,1,48.1,2.15,16.4,14.2,15.3,MN5
Europe,France,27473,Birosse,20,8,0,43.8951412,0.6907749,16.4,14.2,15.3,MN5
Europe,France,27280,Breil MN5,20,11,1,47.4751139,0.1571317,16.4,14.2,15.3,MN5
Europe,France,27281,Channay-sur-Lathan MN5,36,19,1,47.4796598,0.2630479,16.4,14.2,15.3,MN5
Europe,France,27282,Chavaignes MN3,19,8,1,47.5410295,0.0369747,16.4,14.2,15.3,MN5
Europe,France,27283,Clere-les-Pins MN5,21,14,1,47.4256399,0.389959,16.4,14.2,15.3,MN5
Europe,France,27285,Genneteil MN5,10,5,0,47.5922046,0.0494674,16.4,14.2,15.3,MN5
Europe,France,27286,Hommes MN5,28,13,2,47.4252487,0.2965094,16.4,14.2,15.3,MN5
Europe,France,20097,La Condoue,12,7,0,43.9,0.8,16.4,14.2,15.3,MN5
Europe,France,27288,Lublé MN5,7,2,0,47.5147863,0.2449227,16.4,14.2,15.3,MN5
Europe,France,21700,Manciet base,4,4,0,43.817,0.5,16.4,14.2,15.3,MN5
Europe,France,23066,Meigne-le-Vicomte MN5,25,13,0,47.5097694,0.1908007,16.4,14.2,15.3,MN5
Europe,France,27289,Méon MN5,13,9,0,47.4947888,0.1194294,16.4,14.2,15.3,MN5
Europe,France,27291,Pont-Boutard MN5,29,15,1,47.3315751,0.325279,16.4,14.2,15.3,MN5
Europe,France,21461,Poudenas-Peyrecrechen,12,10,1,44.05,0.217,16.4,14.2,15.3,MN5
Europe,France,27293,Rillé MN5,18,9,0,47.4495752,0.2478435,16.4,14.2,15.3,MN5
Europe,France,21464,Rimbez - Lapeyrie base,17,10,0,44.033,0.033,16.4,14.2,15.3,MN5
Europe,France,27294,Saint Laurent-de-Lin MN5,12,8,1,47.5067537,0.2578044,16.4,14.2,15.3,MN5
Europe,France,27476,Collet-Redon,16,3,1,43.6210342,5.2982602,12.85,11.2,12.025,MN7-8
Europe,France,21407,La Grive L5,5,5,0,45.6078,5.2206,12.85,11.2,12.025,MN7-8
Europe,France,27302,La Grive PB A,32,9,2,45.5957,5.2317,12.85,11.2,12.025,MN7-8
Europe,France,21340,Malartic,6,5,1,43.45,0.733,12.85,11.2,12.025,MN7-8
Europe,France,21735,Poudenas-Cayron,10,7,0,44.05,0.217,12.85,11.2,12.025,MN7-8
Europe,France,21704,Saint-Gaudens (Valentine),11,8,0,43.1,0.717,12.85,11.2,12.025,MN7-8
Europe,France,21432,Estevar,11,4,2,42.468232,1.9956046,11.2,9.9,10.55,MN9
Europe,France,21596,Esvres - Upper Faluns,6,3,1,47.3,0.8,11.2,9.9,10.55,MN9
Europe,France,20584,Pont de Gail,11,3,3,45.35,1.667,11.63,5.333,8.4815,MN11
Europe,France,20090,Mt. Luberon,24,1,3,43.7,5.4,7.6,7.1,7.35,MN12
Europe,France,27479,Mistrals I,5,4,1,44.3762088,5.0182149,8.9,5.3,7.1,MN13
Europe,France,20679,Puy Courny,7,4,3,45,2.2,7.44,6.48,6.96,MN13
Europe,France,20753,Celleneuve,19,2,1,43.5,3.5,5.3,5,5.15,MN14
Europe,France,20728,Montpellier,29,4,8,43.6,3.89,5.3,5,5.15,MN14
Europe,France,20752,Saint Laurent des Arbres,6,3,2,43.933,4.8,5.3,5,5.15,MN14
Europe,France,20755,Trévoux,9,3,2,45.933,4.767,5.3,5,5.15,MN14
Europe,France,20754,Vendargues,20,1,2,43.65,3.967,5.3,5,5.15,MN14
Europe,France,24413,Blassac la Girondie,23,3,5,45.09,3.2697,3.6,2.58,3.09,MN16
Europe,France,20707,Etouaires,36,7,7,45.55,3.25,3.55,2.5,3.025,MN16
Europe,France,20706,Vialette,15,6,4,45.07,2.46,3.55,2.5,3.025,MN16
Europe,France,20708,Roccaneyra,13,3,6,45.55,3.217,2.5,2.5,2.5,MN17
Europe,France,20711,Chilhac,19,1,3,45.09,3.27,2.5,1.9,2.2,MN17
Europe,France,27478,Cornillet 3,7,2,3,43.86844566,6.186161041,2.5,1.9,2.2,MN17
Europe,France,20710,Coupet,16,6,7,45.08,3.33,2.5,1.9,2.2,MN17
Europe,France,20709,Pardines,17,4,6,45.3,3.1,2.5,1.9,2.2,MN17
Europe,France,20384,Saint Vallier,37,6,8,45.167,4.817,2.5,1.9,2.2,MN17
Europe,France,24415,Saint Vallier Banc LD2,6,3,3,45.1667,4.8167,2.5,1.9,2.2,MN17
Europe,France,24414,Saint Vallier Banc LD3,33,4,6,45.1667,4.8167,2.5,1.9,2.2,MN17
Europe,France,20712,Senèze,32,3,12,45.241,3.483,2.2,2.1,2.15,MN17
Europe,France,27461,Nogaret,7,2,3,43.78925095,3.209638596,2.58,0.774,1.677,MN18
Europe,France,24311,Champeix,4,2,1,46.3333,2.1667,1.9,0.0117,0.95585,MN18
Europe,France,27492,Durfort,6,2,4,43.98886244,3.951473236,1,0.5,0.75,MN18
Europe,France,27464,Vergranne,32,3,5,47.408986,6.3914463,0.563,0.424,0.4935,MN18
Europe,France,26600,Baume Néron,24,1,7,44,4,0.0441,0.0419,0.043,MN18
Europe,France,22305,Jaurens,13,2,5,45.05,1.5,0.0395,0.0293,0.0344,MN18
Europe,France,27047,North Sea Reindeer culture,8,4,0,52.5,4.5,0.03625,0.01,0.023125,MN18
Europe,Germany,27905,Liptingen 1B,27,5,0,47.9346,8.9378,33.77,32.63,33.2,MP21
Europe,Germany,22561,Rott,31,3,0,50.75,7.267,23.26,23,23.13,MP30
Europe,Germany,28100,Rothenstein 10/14 a,12,4,0,51.1167,7.6833,21.7,19.5,20.6,MN2
Europe,Germany,28101,Rothenstein 10/14 b,21,4,0,51.1167,7.6833,21.7,19.5,20.6,MN2
Europe,Germany,28102,Rothenstein 10/14 c,21,5,0,51.1167,7.6833,21.7,19.5,20.6,MN2
Europe,Germany,20918,Ulm-Uniklinik,11,4,0,48.4233,9.9544,21.7,19.5,20.6,MN2
Europe,Germany,21294,Frankfurt-Nordbassin,23,2,1,50.13277778,8.693333333,19.5,17.2,18.35,MN3
Europe,Germany,24411,Baggersee Freudenegg 2,7,5,0,48.3333,10.0106,17.2,16.4,16.8,MN4
Europe,Germany,24412,Baggersee Freudenegg 3,10,6,0,48.3333,10.0106,17.2,16.4,16.8,MN4
Europe,Germany,24295,Eggingen-Mittelhart 3,32,14,2,48.3633,9.8789,17.2,16.4,16.8,MN4
Europe,Germany,20410,Langenau 2,11,7,0,48.5,10.1,17.2,16.4,16.8,MN4
Europe,Germany,27731,Petersbuch 8,28,5,0,48.9776779,11.1862984,17.2,16.4,16.8,MN4
Europe,Germany,20412,Engelswies,30,9,0,48.033,9.133,16.543,16.268,16.4055,MN4
Europe,Germany,20413,Gerlenhofen,6,6,0,48.2,10.02,17.2,14.2,15.7,MN5
Europe,Germany,20414,Grimmelfingen,6,6,0,48.22,9.56,17.2,14.2,15.7,MN5
Europe,Germany,24289,Edelbeuren-Maurerkopf,32,6,0,48.0956,10.0322,16.4,14.2,15.3,MN5
Europe,Germany,24290,Edelbeuren-Schlachtberg,11,5,0,48.0936,10.0219,16.4,14.2,15.3,MN5
Europe,Germany,20236,Enghausen,7,6,0,48.09,12.27,16.4,14.2,15.3,MN5
Europe,Germany,20239,Georgensgmünd,8,5,2,49.19,11.017,16.4,14.2,15.3,MN5
Europe,Germany,20082,Häder,16,7,0,48.21,10.38,16.4,14.2,15.3,MN5
Europe,Germany,24304,Heggbach,14,7,1,48.1503,9.8981,16.4,14.2,15.3,MN5
Europe,Germany,20330,Rothenstein 1,26,5,1,51.117,7.683,16.4,14.2,15.3,MN5
Europe,Germany,20238,Ziemetshausen 1b,23,7,0,48.3,10.5,16.4,14.2,15.3,MN5
Europe,Germany,21354,Bermersheim,4,4,0,49.778,8.099,16.4,9.9,13.15,MN6
Europe,Germany,21337,Dinotheriensande,7,5,0,49,8,16.4,9.9,13.15,MN6
Europe,Germany,20019,Eppelsheim,34,11,5,49.705597,8.165761,16.4,9.9,13.15,MN6
Europe,Germany,20253,Esselborn,11,6,1,49.7,8.1,16.4,9.9,13.15,MN6
Europe,Germany,20280,Wissberg,18,11,0,49.856,8.024,16.4,7.6,12,MN7-8
Europe,Germany,20249,Massenhausen,15,11,1,48.4,11.8,12.85,9.9,11.375,MN7-8
Europe,Germany,20251,Gau-Weinheim,7,5,1,49.846,8.048,11.2,9.9,10.55,MN9
Europe,Germany,20254,Höwenegg,9,3,2,47.7,8.7,11.2,9.9,10.55,MN9
Europe,Germany,21332,Petersbuch 14,33,2,1,48.9776779,11.1862984,11.2,9.9,10.55,MN9
Europe,Germany,20258,Wartenberg,10,7,2,48.4,11.983,11.2,9.9,10.55,MN9
Europe,Germany,20313,Westhofen,6,6,0,49.55,8.25,11.2,9.9,10.55,MN9
Europe,Germany,27811,Dorn-Dürkheim 3,15,3,7,49.76844,8.269213,1.9,0.781,1.3405,MN18
Europe,Germany,24302,Grosse Grotte (Blaubeuren),20,1,6,48.4119,9.7844,1.9,0.0117,0.95585,MN18
Europe,Germany,28677,Mosbach,25,3,8,50.07,8.27,0.781,0.424,0.6025,MN18
Europe,Germany,28678,Suessenborn,18,3,10,50.98,11.35,0.774,0.424,0.599,MN18
Europe,Germany,24178,Reilingen,15,0,11,49.2944,8.5733,0.3,0.243,0.2715,MN18
Europe,Germany,26643,Wildenscheuer cave st. I-II,8,0,4,50.417,8.133,0.115,0.0625,0.08875,MN18
Europe,Germany,26651,Hunas Riss,10,2,5,49.5,11.583,0.079,0.076,0.0775,MN18
Europe,Germany,28263,Perick,10,0,5,51.254721,8.16881,0.115,0.01,0.0625,MN18
Europe,Germany,26642,Wildenscheuer cave st. III,8,0,4,50.417,8.1333,0.0237,0.0229,0.0233,MN18
Europe,Germany,26753,Burgh hle Dietfurt Hol,14,1,3,48.073,9.137,0.0117,0,0.00585,MN18
Europe,Greece,20996,Antonios,27,5,1,40.437093,23.093244,17.2,14.2,15.7,MN5
Europe,Greece,20846,Pentalophos 1 (PNT),18,9,6,41,23,11.2,9.9,10.55,MN9
Europe,Greece,20295,Xirochori 1 (XIR),10,2,4,41,23,9.721,9.647,9.684,MN10
Europe,Greece,20455,Nikiti 1 (NKT),15,4,7,40,23.5,9.9,8.9,9.4,MN10
Europe,Greece,20294,Ravin de la Pluie (RPL),24,8,6,41,22.95,9.426,9.311,9.3685,MN10
Europe,Greece,20087,Ravin des Zouaves 1,8,2,4,41,22.95,9.426,9.311,9.3685,MN10
Europe,Greece,24901,Ravin X,15,1,9,38.4,23.4833,9.9,7.6,8.75,MN11
Europe,Greece,20848,Nikiti 2 (NIK),11,1,8,40,23.5,8.9,7.6,8.25,MN11
Europe,Greece,24910,Ravin Ar.,8,1,4,38.4175,23.4833,8.9,7.6,8.25,MN11
Europe,Greece,20298,Ravin des Zouaves 5,30,5,13,41,22.95,8.254,8.108,8.181,MN11
Europe,Greece,20448,Kerassia,5,3,1,38.91111111,23.325,8.9,7.1,8,MN11
Europe,Greece,24884,Kerassia 3,5,3,2,38.91111111,23.32472222,8.9,7.1,8,MN11
Europe,Greece,24885,Kerassia 4,10,3,5,38.91111111,23.32472222,8.9,7.1,8,MN11
Europe,Greece,24938,Thermopigi,18,3,9,41.28777778,23.36416667,8.9,7.1,8,MN11
Europe,Greece,20465,Prochoma,18,3,10,41,22.93,7.528,7.489,7.5085,MN12
Europe,Greece,20850,Vathylakkos 2 (VTK),14,3,6,41,23,7.489,7.454,7.4715,MN12
Europe,Greece,20851,Vathylakkos 3 (VAT),24,5,9,41,23,7.489,7.454,7.4715,MN12
Europe,Greece,24873,Perivolaki,26,4,13,38.4167,23.5,7.454,7.285,7.3695,MN12
Europe,Greece,29697,Pikermi Valley 3,15,5,8,38.006655,23.943264,7.454,7.285,7.3695,MN12
Europe,Greece,20864,Chomateres,20,4,6,38.08,23.88,7.6,7.1,7.35,MN12
Europe,Greece,20198,Halmyropotamos (HAL),23,3,12,38.5,24.2,7.6,7.1,7.35,MN12
Europe,Greece,24882,Kerassia 1,12,3,5,38.91111111,23.32472222,7.6,7.1,7.35,MN12
Europe,Greece,20297,Pyrgos Vassilissis,8,1,6,38.01,23.73,7.212,7.14,7.176,MN12
Europe,Greece,20859,Achladi,5,0,4,38.5,23.5,8.9,5.3,7.1,MN13
Europe,Greece,24909,Achmet Aga,6,1,4,38.4172,23.5003,8.9,5.3,7.1,MN13
Europe,Greece,20858,Alifakas,5,1,3,39.5,22.5,8.9,5.3,7.1,MN13
Europe,Greece,28113,Asprogiannos,5,1,3,40.48333333,22.83333333,7.1,5.3,6.2,MN13
Europe,Greece,20865,Dytiko 1 (DTK),19,3,11,41,23,7.1,5.3,6.2,MN13
Europe,Greece,20866,Dytiko 2 (DIT),13,5,6,41,23,7.1,5.3,6.2,MN13
Europe,Greece,20867,Dytiko 3 (DKO),18,4,6,41,23,7.1,5.3,6.2,MN13
Europe,Greece,20588,Ano Metochi,4,0,4,41,23.5,7.1,5,6.05,MN13
Europe,Greece,20588,Ano Metochi 2:3,27,0,5,41,23.5,7.1,5,6.05,MN13
Europe,Greece,22942,Silata,24,1,3,41,23,7.1,5,6.05,MN13
Europe,Greece,21025,"Kessani 1,2",9,2,2,41,25,5.3,5,5.15,MN14
Europe,Greece,20476,Megalo Emvolon (MEV),11,3,3,40.3,22.45,5,3.55,4.275,MN15
Europe,Greece,20476,Megalo Emvolon (MEV),11,2,3,40.3,22.45,5,3.55,4.275,MN15
Europe,Greece,20733,Gerakarou 1 (GER),21,3,6,40.38,23.4,3.55,2.725,3.1375,MN16
Europe,Greece,21035,Pyrgos,10,1,4,37.6833,21.45,3.55,2.725,3.1375,MN16
Europe,Greece,21031,Vassiloudi (VSL),6,0,3,40.3,23.3,3.55,2.725,3.1375,MN16
Europe,Greece,21032,Krimni (KRI),5,2,3,40.3,23.3,3.55,1.9,2.725,MN16
Europe,Greece,21036,Livakos (LIV),18,6,3,40.15,21.2,3.55,1.9,2.725,MN16
Europe,Greece,21033,Polylakkos,5,2,3,40.15,21.2,3.55,1.9,2.725,MN16
Europe,Greece,21027,Tourkovounia 3-5,5,2,1,38.5,23.45,3.55,1.9,2.725,MN16
Europe,Greece,21029,Dafnero (DFN),18,3,3,40.172204,21.592133,2.581,2.263,2.422,MN17
Europe,Greece,21034,Alikes (ALK),15,1,6,39.15,22.45,3.55,1.187,2.3685,MN17
Europe,Greece,21037,Kapetanios,5,2,3,40.15,21.2,2.725,1.9,2.3125,MN17
Europe,Greece,21030,Sesklon (SES),25,5,7,39.15,22.45,2.5,1.9,2.2,MN17
Europe,Greece,21047,Q-Profil,6,1,4,40.15,21.2,3.55,0.5,2.025,MN17
Europe,Greece,24392,Apidima (A),4,1,2,37,22.58333,2.58,0,1.29,MN18
Europe,Greece,24393,Apidima (B),7,1,3,37,22.58333,2.58,0,1.29,MN18
Europe,Greece,24394,Apidima (C),11,1,4,37,22.58333,2.58,0,1.29,MN18
Europe,Greece,21039,Apollonia (APL),30,3,11,40.75,23.3,1.9,0.5,1.2,MN18
Europe,Greece,21041,Kaiafas,19,2,2,37.3,22.3,1.9,0.5,1.2,MN18
Europe,Greece,21040,Megalopolis,12,2,6,37.15,22.15,1.9,0.5,1.2,MN18
Europe,Greece,21040,Megalopolis,12,2,6,37.15,22.15,1.9,0.5,1.2,MN18
Europe,Greece,21038,Ravin Vulgarakis,16,5,5,40.3,23.3,1.9,0.5,1.2,MN18
Europe,Greece,27029,Vraona cave,11,2,4,38,23.5,0.02449,0.009375,0.0169325,MN18
Europe,Hungary,20450,Csakvar,37,5,NA,47.4,18.5,8.9,7.6,8.25,MN11
Europe,Hungary,20287,Baltavar,17,6,6,47,17,7.6,7.1,7.35,MN12
Europe,Hungary,20262,Polgardi,38,4,3,47,18.3,7.6,5.3,6.45,MN13
Europe,Hungary,20286,Hatvan,46,4,1,47.667,19.683,7.1,5.3,6.2,MN13
Europe,Hungary,20439,Gödöllö,5,2,1,47.6,19.367,5.3,5,5.15,MN14
Europe,Italy,22862,Cadibona,7,5,0,44.333,8.367,28.82,27.24,28.03,MP25
Europe,Italy,21383,Oschiri,13,5,0,40.717,9.1,21.7,19.5,20.6,MN2
Europe,Italy,20202,Baccinello V1,14,1,2,42.7,11.1,8.9,7.1,8,MN11
Europe,Italy,20266,Monte Bamboli,10,0,2,43.2,10.7,8.9,7.1,8,MN11
Europe,Italy,20200,Baccinello V2,14,2,1,42.7,11.1,7.6,7.1,7.35,MN12
Europe,Italy,20267,Casteani,6,2,1,42.5,11.15,7.6,7.1,7.35,MN12
Europe,Italy,20998,Fiume Santo,13,2,4,40.8,8.3,7.6,7.1,7.35,MN12
Europe,Italy,21614,Podere la Crocina,11,3,1,42.78985806,11.29119873,7.6,5.3,6.45,MN13
Europe,Italy,20201,Baccinello V3,30,5,3,42.7,11.1,7.1,5.3,6.2,MN13
Europe,Italy,20089,Brisighella,39,3,3,44.5,11.6,7.1,5.3,6.2,MN13
Europe,Italy,20270,Gravitelli,12,1,5,38.2,15.5,7.1,5.3,6.2,MN13
Europe,Italy,20271,Casino,10,2,3,43.5,11.2,7.1,5,6.05,MN13
Europe,Italy,21001,Velona,9,1,3,43.05,11.5,7.1,5,6.05,MN13
Europe,Italy,20749,Mandriola,14,2,2,40.02,8.22,5.3,5,5.15,MN14
Europe,Italy,20746,Val di Pugna,4,0,3,43.3,11.5,5,3.55,4.275,MN15
Europe,Italy,20385,Triversa (Fornace RDB),23,6,2,44.9,8.1,3.55,2.5,3.025,MN16
Europe,Italy,20750,Capo Figari 1,22,0,2,41,9.4,3.55,1.9,2.725,MN16
Europe,Italy,24442,Upper Valdarno,5,0,5,43.3333,11.0833,5.333,0.0117,2.67235,MN16
Europe,Italy,24441,Montopoli,11,5,5,43.5,11,2.581,2.32,2.4505,MN17
Europe,Italy,24441,Montopoli,20,5,6,43.5,11,2.581,2.32,2.4505,MN17
Europe,Italy,24267,Selvella,7,1,4,44.2117,10.5628,3.55,1.187,2.3685,MN17
Europe,Italy,24452,Costa San Giacomo,19,3,9,42,14.4167,2.23,2.2,2.215,MN17
Europe,Italy,24439,Olivola,22,3,7,44.4167,10,2.138,1.981,2.0595,MN17
Europe,Italy,24266,Pantalla,7,1,2,42.8742,12.4003,2.138,1.778,1.958,MN17
Europe,Italy,24454,Farneta,20,2,5,43.6667,12,1.8615,1.681,1.77125,MN18
Europe,Italy,24455,Pirro,13,2,8,41.80194444,15.38472222,1.8576,1.1352,1.4964,MN18
Europe,Italy,24455,Pirro Nord,23,1,5,41.80194444,15.38472222,1.8576,1.1352,1.4964,MN18
Europe,Italy,24456,Colle Curti,11,2,4,43,13,1.072,0.988,1.03,MN18
Europe,Italy,24268,Bucine,16,2,7,43.4775,11.6158,1.9,0.0117,0.95585,MN18
Europe,Italy,28028,Calorie,3,1,3,39.61666667,16.01666667,1.9,0.0117,0.95585,MN18
Europe,Italy,24312,Cava Arnolfi (Ponte Galeria),6,1,5,41.8167,12.35,1.9,0.0117,0.95585,MN18
Europe,Italy,28044,Cava Grande A,3,0,3,41.85,12.4,1.9,0.0117,0.95585,MN18
Europe,Italy,28029,Colfiorito,7,2,4,43.03333333,12.88333333,1.9,0.0117,0.95585,MN18
Europe,Italy,28033,Monte Tuttavista Ass 1,14,0,2,40.53333333,9.633333333,1.9,0.0117,0.95585,MN18
Europe,Italy,28027,Pagliare di Sassa,8,2,4,42.58333333,12.72305556,1.9,0.0117,0.95585,MN18
Europe,Italy,24313,San Gimignano,4,0,4,43.4667,11.0333,1.9,0.0117,0.95585,MN18
Europe,Italy,28047,San Giovanni,6,0,5,40.73333333,8.366666667,1.9,0.0117,0.95585,MN18
Europe,Italy,28037,Santa Lucia,11,0,4,41,12,1.9,0.0117,0.95585,MN18
Europe,Italy,24457,Slivia,20,4,11,45.6667,13.6667,1.03,0.781,0.9055,MN18
Europe,Italy,24458,Ponte Galeria,12,2,9,42.3333,12.5,0.771,0.649,0.71,MN18
Europe,Italy,28030,Valdemino,12,0,3,45.71666667,13.58333333,0.774,0.478,0.626,MN18
Europe,Italy,28031,Venosa Notarchirico,13,1,8,41.8,15.4,0.774,0.478,0.626,MN18
Europe,Italy,28064,Isernia-Notarchirico,21,3,6,41.6,14.18333333,0.586,0.563,0.5745,MN18
Europe,Italy,28032,Visogliano,19,5,5,45.76666667,13.65,0.581,0.323,0.452,MN18
Europe,Italy,24772,Castel di Guido,16,3,5,41.54,12.28333333,0.465,0.395,0.43,MN18
Europe,Italy,24460,Fontana Ranuccio,15,3,11,42.1667,14,0.458,0.366,0.412,MN18
Europe,Italy,26956,Torre del Pagliaccetto,17,2,6,42.5,12,0.374,0.191,0.2825,MN18
Europe,Italy,26736,Campoverde 2,13,2,9,44.17,11.09,0.337,0.191,0.264,MN18
Europe,Italy,26735,Valoncello,6,0,5,44,11,0.337,0.191,0.264,MN18
Europe,Italy,28268,Campagna Romana,6,2,2,41.8905198,12.4942486,0.374,0.13,0.252,MN18
Europe,Italy,26723,Quisisana-Certosa,13,1,7,40.55,14.233,0.3,0.13,0.215,MN18
Europe,Italy,26955,Serbaro,13,2,5,46,11,0.125,0.115,0.12,MN18
Europe,Italy,26401,Cardamone,12,0,6,40.3515155,18.1750161,0.022,0.018,0.02,MN18
Europe,Moldova,20994,Atavaska,10,4,1,47,28.8,11.2,9.9,10.55,MN9
Europe,Moldova,20993,Buzhor 2,5,3,1,46.9282,28.2678,11.2,9.9,10.55,MN9
Europe,Moldova,27147,Draxeni,4,3,1,46.88194444,27.63638889,11.2,9.9,10.55,MN9
Europe,Moldova,27645,Ignaţei,3,1,2,47.66527778,28.75361111,11.2,9.9,10.55,MN9
Europe,Moldova,20162,Isakovo,5,3,2,47.22,28.43,11.2,9.9,10.55,MN9
Europe,Moldova,20172,Lapushna,4,3,0,46.8923,28.4106,11.2,9.9,10.55,MN9
Europe,Moldova,27581,Sireţ,3,1,2,47.01194444,28.36166667,11.2,9.9,10.55,MN9
Europe,Moldova,20307,Varnitsa,12,5,4,47.2,28.9,11.2,9.9,10.55,MN9
Europe,Moldova,27644,Veveriţa 1,3,1,2,46.9025,28.7025,11.2,9.9,10.55,MN9
Europe,Moldova,27680,Drăguşeni,6,1,4,47.43555556,27.585,9.9,8.9,9.4,MN10
Europe,Moldova,20409,Kalfa,35,8,2,46.9056,29.35833333,9.9,8.9,9.4,MN10
Europe,Moldova,20995,Poksheshty,15,3,5,47.249,28.685,9.9,8.9,9.4,MN10
Europe,Moldova,20191,Respopeny,9,4,4,47.45,28.36,9.9,8.9,9.4,MN10
Europe,Moldova,21150,Tiraspol (Kolkotova Balka),6,2,1,46.83,29.6,9.9,8.9,9.4,MN10
Europe,Moldova,20304,Chobruchi (Tchobroutchi),37,3,10,46.6,29.7,9.9,7.1,8.5,MN11
Europe,Moldova,21125,Chimishlija (Cimislia),35,6,11,46.5,28.8,7.6,7.1,7.35,MN12
Europe,Moldova,20160,Gura-Galben,15,3,6,46.42,28.42,7.6,7.1,7.35,MN12
Europe,Moldova,20449,Tudorovo,12,3,6,46.26,30.03,7.6,7.1,7.35,MN12
Europe,Moldova,26677,Trinka I l.2,8,0,3,48,26.9,0.03625,0.01,0.023125,MN18
Europe,Moldova,26999,Kosoutsy,13,2,7,48.23,28.3,0.019,0.013,0.016,MN18
Europe,Moldova,27024,Rud',14,3,4,47,28,0.0117,0,0.00585,MN18
Europe,Moldova,27027,Skok,11,1,6,47.1,28.1,0.0117,0,0.00585,MN18
Europe,Moldova,26678,Trinka I l.1,6,0,1,48,26.9,0.0117,0,0.00585,MN18
Europe,Portugal,20069,Lisboa V,4,2,0,38.44,-9.08,17.2,16.4,16.8,MN4
Europe,Portugal,22367,Azambujeira inf.,3,1,0,39.267,-8.783,11.2,9.9,10.55,MN9
Europe,Romania,20499,Minisu de Sus,4,3,0,46.283,22.017,12.85,11.2,12.025,MN7-8
Europe,Romania,20738,Beresti,13,2,2,46.05,27.53,5.3,5,5.15,MN14
Europe,Romania,20724,Ciuperceni 1,7,2,0,44.19,25.22,5.3,3.55,4.425,MN15
Europe,Romania,24306,Capeni,14,6,2,46.0167,25.55,5,3.55,4.275,MN15
Europe,Romania,20739,Malushteni,23,4,4,46.13,28.08,5,3.55,4.275,MN15
Europe,Romania,20676,Sugas-Bai,5,0,3,45.5,25.5,5,3.55,4.275,MN15
Europe,Romania,24307,Varghis,6,4,1,46.1333,25.5333,5,3.55,4.275,MN15
Europe,Romania,23020,Covrigi,5,4,1,44.75,23.167,3.55,2.5,3.025,MN16
Europe,Romania,24305,Groserea,5,3,2,44.7167,23.4833,3.55,2.5,3.025,MN16
Europe,Romania,24308,Iaras-1,6,3,4,45.8667,25.6,3.55,2.5,3.025,MN16
Europe,Romania,24423,Illieni,6,4,1,45.8667,25.6083,3.55,2.5,3.025,MN16
Europe,Romania,24418,Tulucesti,3,0,3,45.5,27.5306,3.55,2.5,3.025,MN16
Europe,Romania,22596,Lisa,6,1,2,43.778,25.139,3.55,1.9,2.725,MN16
Europe,Romania,24429,Dealul Viilor,4,1,3,44.53,24,3.55,1.187,2.3685,MN17
Europe,Romania,20583,Graunceanu,26,4,9,46,26,3.55,1.187,2.3685,MN17
Europe,Romania,24428,Irimesti,5,1,3,44.5,24.0167,3.55,1.187,2.3685,MN17
Europe,Romania,24430,Leu,4,1,3,44.25,24.0833,3.55,1.187,2.3685,MN17
Europe,Romania,20582,Pietris,11,2,3,44.53,24,2.5,1.9,2.2,MN17
Europe,Serbia,26548,Serbian lake,4,4,0,43.83333333,21.42361111,12.85,5,8.925,MN10
Europe,Serbia,27032,Smolucka Pecina,12,0,4,43.533,20.367,0.038,0.038,0.038,MN18
Europe,Slovakia,21951,Nova Vieska,8,4,3,47.867,18.45,3.55,1.9,2.725,MN16
Europe,Slovakia,21950,Strekov,8,4,3,47.883,18.433,3.55,1.9,2.725,MN16
Europe,Spain,27517,Calaf 1,7,4,0,41.8981,1.6589,32.63,30.83,31.73,MP22
Europe,Spain,27506,Carrascosa del Campo,16,7,0,40.0361374,-2.7367317,33.9,23.03,28.465,MP25
Europe,Spain,21219,Cetina de Aragon,32,6,1,41.326,-2,21.7,19.5,20.6,MN2
Europe,Spain,27151,La Encinilla,6,3,0,40.6589526,-3.7660432,21.7,19.5,20.6,MN2
Europe,Spain,21235,Loranca,29,8,1,40.083,-2.717,21.7,19.5,20.6,MN2
Europe,Spain,21368,Valquemado,21,6,0,40.15,-2.683,21.7,19.5,20.6,MN2
Europe,Spain,27855,La Nasa 3,8,4,0,42.1359,-1.4189,19.0727,18.748,18.91035,MN3
Europe,Spain,21624,Ágreda,19,3,0,41.85,-1.933,19.5,17.2,18.35,MN3
Europe,Spain,22347,Moli Calopa,19,8,0,41.4639687,2.013931996,19.5,17.2,18.35,MN3
Europe,Spain,21538,Moratilla 1,22,3,0,40.98333333,-1.25,19.5,17.2,18.35,MN3
Europe,Spain,21635,Costa Blanca-2,12,6,0,41.476827,1.943745,18.35,17.2,17.775,MN3
Europe,Spain,20029,Can Canals,19,8,2,41.448649,2.001906,17.2,16.4,16.8,MN4
Europe,Spain,20027,El Canyet,19,5,0,41.453606,1.996083,17.2,16.4,16.8,MN4
Europe,Spain,20486,Munébrega 1,22,6,1,41.2551,-1.689,17.2,16.4,16.8,MN4
Europe,Spain,22355,Munébrega 3,12,5,0,41.259,-1.6911,17.2,16.4,16.8,MN4
Europe,Spain,26456,La Nasa 1,13,3,0,32.08333333,118.7,17.2,16.4,16.8,MN4
Europe,Spain,24674,Torralba 1,16,6,0,41.4262,-1.6737,17.2,16.4,16.8,MN4
Europe,Spain,21284,Valtorres,18,6,0,41.2936,-1.7216,17.2,16.4,16.8,MN4
Europe,Spain,20077,Artesilla,38,9,1,41.183,-1.5,16.56,16.225,16.3925,MN5
Europe,Spain,21522,Can Julia,14,6,1,41.42519,1.847288,16.56,16.225,16.3925,MN5
Europe,Spain,20031,Les Cases de la Valenciana,9,5,1,41.429141,1.855117,16.56,16.225,16.3925,MN5
Europe,Spain,20032,Córcoles,23,8,1,40.483,-2.65,16.56,15.935,16.2475,MN5
Europe,Spain,20026,Sant Mamet,23,8,0,41.481619,2.056749,16.225,15.935,16.08,MN5
Europe,Spain,20300,La Retama,33,6,1,40.1,-2.7,15.85,15.59,15.72,MN5
Europe,Spain,20577,Monteagudo,9,7,0,41.9627144,-1.6922991,17.2,14.2,15.7,MN5
Europe,Spain,20485,Armantes 1,19,8,1,41.3891,-1.6968,15.974,15.16,15.567,MN5
Europe,Spain,21224,Els Casots,25,8,0,41.41600021,1.812021715,15.974,15.16,15.567,MN5
Europe,Spain,27820,Armantes 3,12,6,0,41.361,-1.7269,16.4,14.2,15.3,MN5
Europe,Spain,24682,Arroyo del Olivar,12,3,1,40.3861,-3.65,16.4,14.2,15.3,MN5
Europe,Spain,26696,Estación Imperial (Madrid),19,4,2,40.4,-3.683333333,16.4,14.2,15.3,MN5
Europe,Spain,21223,La Hidroelectrica Madrid,15,9,3,40.25,-3.43,16.4,14.2,15.3,MN5
Europe,Spain,27273,Los Nogales,21,7,2,40.40268788,-3.708926439,16.4,14.2,15.3,MN5
Europe,Spain,21639,Montejo de la Vega,24,4,0,41.55,-3.65,16.4,14.2,15.3,MN5
Europe,Spain,20036,Moratines,14,4,2,40.5,-3.5,16.4,14.2,15.3,MN5
Europe,Spain,20037,O'Donnell,19,4,1,40.44277778,-3.5903,16.4,14.2,15.3,MN5
Europe,Spain,26698,Paseo de la Esparanza (Madrid),8,6,2,40.4,-3.683333333,16.4,14.2,15.3,MN5
Europe,Spain,21755,Paseo de las Acacias (Madrid),19,6,2,40.4,-3.683333333,16.4,14.2,15.3,MN5
Europe,Spain,20576,Puente de Toledo,8,6,2,40.383,-3.7,16.4,14.2,15.3,MN5
Europe,Spain,20015,Puente de Vallecas,19,8,4,40.2,-3.5,16.4,14.2,15.3,MN5
Europe,Spain,20039,Tarazona,24,7,2,41.9027715,-1.7254,16.4,14.2,15.3,MN5
Europe,Spain,21754,PAR-Penuelas (Madrid),5,4,1,40.40016781,-3.704606091,15.59,14.815,15.2025,MN5
Europe,Spain,24690,San Isidro,5,4,1,40.4042,-3.733333333,15.59,14.815,15.2025,MN5
Europe,Spain,27278,Toril 3A,37,9,2,41.13333333,-1.383333333,12.85,12.3,12.575,MN7-8
Europe,Spain,24828,Toril 3B,26,7,2,41.13333333,-1.383333333,12.85,12.3,12.575,MN7-8
Europe,Spain,27301,La Grive PB J,25,4,0,45.5957,5.2317,12.85,11.2,12.025,MN7-8
Europe,Spain,20046,Can Almirall,5,4,1,41.387917,2.1699187,12.85,11.2,12.025,MN7-8
Europe,Spain,20105,Can Feliu,15,5,0,41.5313808,2.0776278,12.85,11.2,12.025,MN7-8
Europe,Spain,21233,Cerro del Otero,4,3,0,40.067,-1.017,12.85,11.2,12.025,MN7-8
Europe,Spain,20043,La Ciesma 1,6,3,2,41.9027715,-1.7254,12.85,11.2,12.025,MN7-8
Europe,Spain,21371,La Cisterniga,5,5,0,41.617,-4.681,12.85,11.2,12.025,MN7-8
Europe,Spain,20047,Masquefa,5,3,1,41.5030659,1.8119265,12.85,11.2,12.025,MN7-8
Europe,Spain,21245,Toril 3,4,2,2,41.133,-1.383,12.85,11.2,12.025,MN7-8
Europe,Spain,24316,Nombrevilla-2,27,5,1,41.1167,-1.35,11.91833333,11.78766667,11.853,MN7-8
Europe,Spain,24830,Creu Conill 20,13,3,1,41.533064,2.01847,11.188,11.146,11.167,MN9
Europe,Spain,24315,Nombrevilla-9,10,4,1,41.1167,-1.35,11.188,11.146,11.167,MN9
Europe,Spain,24358,Nombrevilla-1,20,8,4,41.0694,-1.2083,11.056,10.52,10.788,MN9
Europe,Spain,20066,Ballestar,29,9,1,42.3695017,1.4190749,11.2,9.9,10.55,MN9
Europe,Spain,20049,Can Missert,20,3,1,41.560953,2.0104398,11.2,9.9,10.55,MN9
Europe,Spain,20021,Can Poncic,28,5,1,41.53888889,2.073611111,11.2,9.9,10.55,MN9
Europe,Spain,21430,Das,4,2,0,42.35,1.867,11.2,9.9,10.55,MN9
Europe,Spain,27296,EDAR8,6,1,2,41.53473188,2.137656212,11.2,9.9,10.55,MN9
Europe,Spain,21236,El Lugarejo,6,2,2,41.04204,-4.8535661,11.2,9.9,10.55,MN9
Europe,Spain,20108,Polinyà 2,5,3,1,41.55,2.15,11.2,9.9,10.55,MN9
Europe,Spain,24729,Santiga (Sabadell),28,7,2,41.55,2.1,11.2,9.9,10.55,MN9
Europe,Spain,20491,Subsol de Sabadell,13,7,3,41.33,2.07,11.2,9.9,10.55,MN9
Europe,Spain,20496,Teuleria del Firal,16,8,2,42.367,1.45,11.2,9.9,10.55,MN9
Europe,Spain,21003,Hostalets de Pierola Superior,35,6,2,41.5341644,1.7659521,11.146,9.9,10.523,MN9
Europe,Spain,27641,Monteagudo (Vallesian),6,2,3,41.9627144,-1.6922991,11.2,8.9,10.05,MN9
Europe,Spain,20492,Sant Miquel de Taudell,19,9,2,41.55,1.983,11.2,8.9,10.05,MN9
Europe,Spain,20107,La Tarumba I,17,5,2,41.550364,1.938112,9.647,9.5365,9.59175,MN10
Europe,Spain,20053,Can Purull,31,8,4,41.5544,1.9708,9.9,8.9,9.4,MN10
Europe,Spain,24833,Cerro de los Batallones 1,32,4,2,40.174466,-3.715188,9.9,8.9,9.4,MN10
Europe,Spain,27300,Cerro de los Batallones 3,12,2,1,40.175929,-3.715519,9.9,8.9,9.4,MN10
Europe,Spain,20061,La Cantera,13,2,3,40.0667,-1.0167,9.9,8.9,9.4,MN10
Europe,Spain,20394,La Roma 2,22,3,7,40.66666667,-1.0167,9.9,8.9,9.4,MN10
Europe,Spain,27437,Masia de La Roma 604B,10,2,2,40.5,-1.017,9.9,8.9,9.4,MN10
Europe,Spain,21623,"Masía del Barbo 2B	",28,3,3,40.369,-1.095,9.9,8.9,9.4,MN10
Europe,Spain,20062,Crevillente 2,32,6,3,38.4,-0.5,8.9,7.6,8.25,MN11
Europe,Spain,20083,Puente Minero,34,3,5,40.3667,-1.0833,8.9,7.6,8.25,MN11
Europe,Spain,20581,Vivero de Pinos,28,4,2,40.33333333,-1.0833,8.9,7.6,8.25,MN11
Europe,Spain,24735,Concud 2,20,2,2,40.394,-1.19,7.6,7.1,7.35,MN12
Europe,Spain,22962,Concud Barranco,17,4,2,40.4,-1.0167,7.6,7.1,7.35,MN12
Europe,Spain,21010,Crevillente 15,26,5,2,38.25,-0.8,7.6,7.1,7.35,MN12
Europe,Spain,20490,Las Pedrizas,17,5,2,40.3794361,-1.1458717,7.6,7.1,7.35,MN12
Europe,Spain,21413,Masada del Valle 2,23,2,2,40.386,-1.082,7.6,7.1,7.35,MN12
Europe,Spain,20058,Piera,16,6,3,41.51590422,1.74186945,7.6,7.1,7.35,MN12
Europe,Spain,21386,Arenas del Rey,15,3,3,36.967,-3.9,7.1,5.3,6.2,MN13
Europe,Spain,20686,Arquillo 1,30,4,9,40.4,-1.1,7.1,5.3,6.2,MN13
Europe,Spain,20070,La Alberca,16,2,2,37.92349183,-1.140439355,7.1,5.3,6.2,MN13
Europe,Spain,20395,Milagros,12,4,3,40.348,-1.082,7.1,5.3,6.2,MN13
Europe,Spain,20688,Rambla de Valdecebro 6,20,1,3,40.22,-1.05,7.1,5.3,6.2,MN13
Europe,Spain,21410,Valdecebro 3,12,1,3,40.35,-1.0833,7.1,5.3,6.2,MN13
Europe,Spain,20072,Villastar,27,2,5,40.01666667,-1.016666667,7.1,5.3,6.2,MN13
Europe,Spain,20068,Librilla,16,2,4,37.887954,-1.3532889,6.252,6.033,6.1425,MN13
Europe,Spain,20094,Alcoy,25,3,6,38.6,-0.5,5.3,5,5.15,MN14
Europe,Spain,27295,Alcoy-Mina,8,1,4,38.7020091,-0.4771982,5.3,5,5.15,MN14
Europe,Spain,20389,La Calera,31,4,4,40.26527778,-1.052777778,5,3.55,4.275,MN15
Europe,Spain,20481,Layna,36,1,4,41.05,-2.19,5,3.55,4.275,MN15
Europe,Spain,20390,El Rincón,16,2,2,38.917,-1.633,3.55,2.5,3.025,MN16
Europe,Spain,20398,Hu lago,21,3,6,37.417,-3.25,3.55,2.5,3.025,MN16
Europe,Spain,21636,La Higueruelas,10,4,4,38.990319,-4.080277778,3.55,2.5,3.025,MN16
Europe,Spain,20578,Piedrabuena,10,1,3,39.02,-4.1,3.55,2.5,3.025,MN16
Europe,Spain,20387,Villaroya,29,4,6,42.08,-2.04,3.55,2.5,3.025,MN16
Europe,Spain,20391,Almenara-Casablanca 1,29,0,5,40.17,-0.17,2.5,1.9,2.2,MN17
Europe,Spain,20392,La Puebla de Valverde,23,3,7,40.2,-0.9,2.5,1.9,2.2,MN17
Europe,Spain,20487,Fonelas,22,2,3,37.25,-3.1,1.9,1.67,1.785,MN18
Europe,Spain,27150,Quibas,19,0,4,38.30987456,-1.109275818,1.778,1.072,1.425,MN18
Europe,Spain,22920,Venta Micena-2,32,2,9,37.73638889,-2.403611111,1.9,0.5,1.2,MN18
Europe,Spain,24404,Atapuerca E-14,10,2,3,42.3333,-3.5,1.381,0.781,1.081,MN18
Europe,Spain,24398,Atapuerca TDW4  et TDE5,8,3,4,42.3333,-3.5,1.381,0.781,1.081,MN18
Europe,Spain,24435,Gymnesic islands,5,0,5,39.5,3,1.9,0.0117,0.95585,MN18
Europe,Spain,22326,Atapuerca TD8inf,11,3,4,42.333,-3.5,0.781,0.52,0.6505,MN18
Europe,Spain,22324,Atapuerca TD10,17,1,4,42.333,-3.5,0.379,0.374,0.3765,MN18
Europe,Spain,22329,Atapuerca TG10B,17,1,4,42.333,-3.5,0.374,0.13,0.252,MN18
Europe,Spain,22330,Atapuerca TG10C,9,1,3,42.333,-3.5,0.374,0.13,0.252,MN18
Europe,Spain,22331,Atapuerca TG10cc,14,1,5,42.333,-3.5,0.374,0.13,0.252,MN18
Europe,Spain,22332,Atapuerca TG10D,14,1,5,42.333,-3.5,0.374,0.13,0.252,MN18
Europe,Spain,22339,Atapuerca TN6da,15,1,3,42.33333333,-3.5,0.374,0.13,0.252,MN18
Europe,Spain,22341,Atapuerca TZ,4,1,3,42.33333333,-3.5,0.374,0.13,0.252,MN18
Europe,Spain,22328,Atapuerca TG10A,11,1,4,42.333,-3.5,0.265,0.221,0.243,MN18
Europe,Spain,22333,Atapuerca TG11,18,1,5,42.33333333,-3.5,0.255,0.218,0.2365,MN18
Europe,Spain,27049,La Parte,8,0,6,43.35,-5.85,0.188,0.141,0.1645,MN18
Europe,Spain,28260,Abric Romani,13,0,6,41.5307542,1.6796126,0.07,0.04,0.055,MN18
Europe,Spain,28124,Labeko Koba,19,1,7,43.2,-2.116666667,0.035,0.029,0.032,MN18
Europe,Switzerland,22867,Grenchen 1,12,3,0,47.183,7.383,29.97,28.82,29.395,MP24
Europe,Switzerland,22869,Bumbach 1,22,5,0,46.8,7.9,28.82,27.24,28.03,MP25
Europe,Switzerland,22749,Mumliswil-Hardberg,28,6,0,47.35,7.7,27.24,25.41,26.325,MP26
Europe,Switzerland,22761,Wynau I,33,4,0,47.267,7.8,25.41,24.56,24.985,MP27
Europe,Switzerland,22747,Rickenbach,35,7,0,47.55,8.8,23.86,23.26,23.56,MP29
Europe,Switzerland,22871,Brochene Fluh 19/20,25,2,0,46.683,8.15,23.26,23,23.13,MP30
Europe,Switzerland,22748,Kuttigen,39,4,0,47.417,8.05,23.26,23,23.13,MP30
Europe,Switzerland,21023,Chemin des Falaises,4,3,0,46.533,6.65,21.7,19.5,20.6,MN2
Europe,Switzerland,21022,Haut du Calvaire,4,4,0,46.533,6.65,21.7,19.5,20.6,MN2
Europe,Switzerland,21020,Le Tunnel,5,4,0,46.533,6.65,21.7,19.5,20.6,MN2
Europe,Switzerland,21082,Trub-Sältenbach,19,2,0,46.95472222,7.870833333,18.35,17.2,17.775,MN3
Europe,Switzerland,21637,Grès de la Molière,8,2,0,46.85,6.85,18.35,16.8,17.575,MN3
Europe,Switzerland,27748,Buchberg-Erlistrasse 88,17,2,0,47.5742482,8.5553038,16.4,14.2,15.3,MN5
Europe,Switzerland,21095,Güntisberg,14,3,0,47.26305556,8.913611111,16.4,14.2,15.3,MN5
Europe,Switzerland,21114,Hüllistein,20,5,0,47.24722222,8.838333333,16.4,14.2,15.3,MN5
Europe,Switzerland,21326,Helsighausen,31,4,0,47.64166667,9.060833333,12.85,11.2,12.025,MN7-8
Europe,Switzerland,20434,Charmoille,17,9,2,47.433,7.217,11.2,9.9,10.55,MN9
Europe,Ukraine,20169,Krivoj Rog,5,3,1,47.9,28.5,13.6,11.5,12.55,MN7-8
Europe,Ukraine,21138,Aleksandrodar,5,2,3,47.9,28.5,12.2,11.5,11.85,MN7-8
Europe,Ukraine,21213,Zheltokamenka,7,5,1,45.267,33.45,11.2,10.625,10.9125,MN9
Europe,Ukraine,20282,Sevastopol (Sebastopol),15,5,3,44.5,33.6,11,9.88,10.44,MN9
Europe,Ukraine,20442,Berislav,3,1,1,46.837,33.424,9.9,8.9,9.4,MN10
Europe,Ukraine,20289,Grebeniki,26,6,7,46.883,29.817,9.9,8.9,9.4,MN10
Europe,Ukraine,20444,Grossulovo,9,0,4,47.35,30,9.9,8.9,9.4,MN10
Europe,Ukraine,20184,Novoukrainka,4,1,2,48.3,31.5,9.9,8.9,9.4,MN10
Europe,Ukraine,20180,Novaja Emetovka,20,6,6,46.65,30.6,9.9,7.6,8.75,MN11
Europe,Ukraine,21143,Kujalnitskij liman,9,3,5,46.5,30.8,9.88,7.1,8.49,MN11
Europe,Ukraine,20467,Novo-Elizavetovka,21,8,6,47,31,8.9,7.1,8,MN11
Europe,Ukraine,20141,Belka,14,7,3,50.817,28.183,7.6,7.1,7.35,MN12
Europe,Ukraine,21160,Tulchin,6,3,2,48.5,29,7.6,7.1,7.35,MN12
Europe,Ukraine,20135,Ananjev,5,2,2,47.7,30,7.1,5.3,6.2,MN13
Europe,Ukraine,21163,Timkovo,5,3,2,47.9,29.4,5.333,4.4153,4.87415,MN15
Europe,Ukraine,21161,Zhuravlevka,3,1,2,48.6,28.6,5.333,4.4153,4.87415,MN15
Europe,Ukraine,20186,Odessa Catacombs,39,2,3,46.5,30.8,5,3.55,4.275,MN15
Europe,Ukraine,21177,Odessa 3,4,1,3,46.5,30.8,4.4153,3.4977,3.9565,MN15
Europe,Ukraine,21195,Berdjansk,4,1,2,46.8,36.8,3.4977,2.58,3.03885,MN16
Europe,Ukraine,21194,Ljapino,3,0,3,47.2,37.2,3.4977,2.58,3.03885,MN16
Europe,Ukraine,21193,Zhdanov,5,1,4,47.2,37.2,3.4977,2.58,3.03885,MN16
Europe,Ukraine,21211,Zhevakhova Gora,9,2,5,46.583,30.767,2.58,1.677,2.1285,MN17
Europe,Ukraine,20897,Marganets,3,0,3,47.2,34.3,0.621,0.424,0.5225,MN18
Europe,Ukraine,20880,Tikhonovka 1,21,0,4,46.85,35.3,0.621,0.424,0.5225,MN18
Europe,Ukraine,21978,Molodova I l-4,11,1,7,48.55,27.08333333,0.057,0.044,0.0505,MN18
Europe,Ukraine,26675,Andreevka Hol,10,0,5,49,32,0.0078,0.0039,0.00585,MN18
Europe,Ukraine,26671,Kichkas,9,0,4,48.4,35.4,0.0117,0,0.00585,MN18
Europe,Ukraine,26669,Kiev zemljanki,11,1,4,50.4,30.5,0.0117,0,0.00585,MN18
Europe,Ukraine,26670,Kisilivka mountain,10,2,5,50.41,30.51,0.0117,0,0.00585,MN18
Europe,Ukraine,26673,Sabatinovka,10,1,4,47.4,30,0.0078,0.0039,0.00585,MN18
Europe,Ukraine,26674,Usatove,15,1,8,46.5,30.8,0.0078,0.0039,0.00585,MN18